[
  {
    "nome": "Barra da Tijuca",
    "lat": -23.0094,
    "lng": -43.3659
  },
  {
    "nome": "Reserva",
    "lat": -23.0210,
    "lng": -43.4106
  },
  {
    "nome": "Recreio",
    "lat": -23.0288,
    "lng": -43.4816
  },
  {
    "nome": "Macumba",
    "lat": -23.0357,
    "lng": -43.5061
  },
  {
    "nome": "Grumari",
    "lat": -23.0474,
    "lng": -43.5296
  }
]
